{"type":"FeatureCollection","features":[{"type":"Feature","geometry":{"type":"Point","coordinates":[102.7474246546626,17.79938619138683,0]},"properties":{"name":"หอพักนักศึกษาชาย","styleUrl":"#mm_marker_color_13","styleHash":"-5b6b9c27","com_exlyo_mapmarker_piniconcode":-1,"com_exlyo_mapmarker_customfields":"[]"}},{"type":"Feature","geometry":{"type":"Point","coordinates":[102.7412374690175,17.82010188604463,0]},"properties":{"name":"หอพักชาย โชคชัย","styleUrl":"#mm_marker_color_38","styleHash":"-25de5764","com_exlyo_mapmarker_piniconcode":-1,"com_exlyo_mapmarker_customfields":"[]"}},{"type":"Feature","geometry":{"type":"Point","coordinates":[102.7422392740846,17.81871978678866,0]},"properties":{"name":"หอพักรวม เดอะวัน","styleUrl":"#mm_marker_color_47","styleHash":"-26d6a46","com_exlyo_mapmarker_piniconcode":-1,"com_exlyo_mapmarker_customfields":"[]"}},{"type":"Feature","geometry":{"type":"Point","coordinates":[102.7490095049143,17.79874135096867,0]},"properties":{"name":"หอพักนักศึกษาหญิง 1","styleUrl":"#mm_marker_color_55","styleHash":"6ca1e157","com_exlyo_mapmarker_piniconcode":-1,"com_exlyo_mapmarker_customfields":"[]"}},{"type":"Feature","geometry":{"type":"Point","coordinates":[102.7493652328849,17.79828293824461,0]},"properties":{"name":"หอพักนักศึกษาหญิง 2","styleUrl":"#mm_marker_color_56","styleHash":"210382d8","com_exlyo_mapmarker_piniconcode":-1,"com_exlyo_mapmarker_customfields":"[]"}},{"type":"Feature","geometry":{"type":"Point","coordinates":[102.7405608817935,17.82104668675924,0]},"properties":{"name":"หอพักหญิง สีเขียว","styleUrl":"#mm_marker_color_70","styleHash":"-69a128f0","description":"431 หมู่ 7","com_exlyo_mapmarker_piniconcode":-1,"com_exlyo_mapmarker_customfields":"[]"}},{"type":"Feature","geometry":{"type":"Point","coordinates":[102.7393686398864,17.82281785541441,0]},"properties":{"name":"หอพักหญิง พรชิตา","styleUrl":"#mm_marker_color_81","styleHash":22930730,"com_exlyo_mapmarker_piniconcode":-1,"com_exlyo_mapmarker_customfields":"[]"}},{"type":"Feature","geometry":{"type":"Point","coordinates":[102.740342952311,17.82335951223629,0]},"properties":{"name":"หอพักหญิง เกิดชัยยะ","styleUrl":"#mm_marker_color_84","styleHash":"3fb7ebb3","com_exlyo_mapmarker_piniconcode":-1,"com_exlyo_mapmarker_customfields":"[]"}},{"type":"Feature","geometry":{"type":"Point","coordinates":[102.7415009960532,17.81985483259933,0]},"properties":{"name":"หอพักหญิง โชคชัย","styleUrl":"#mm_marker_color_92","styleHash":"-5138c8b0","com_exlyo_mapmarker_piniconcode":-1,"com_exlyo_mapmarker_customfields":"[]"}},{"type":"Feature","geometry":{"type":"Point","coordinates":[102.7402997016907,17.82188487401147,0]},"properties":{"name":"หอพักหญิง พิรารัตน์","styleUrl":"#mm_marker_color_96","styleHash":"-7fb242ac","com_exlyo_mapmarker_piniconcode":-1,"com_exlyo_mapmarker_customfields":"[]"}},{"type":"Feature","geometry":{"type":"Point","coordinates":[102.7407627180219,17.8173597012858,0]},"properties":{"name":"หอพักหญิง บ้านแก้วอาภา","styleUrl":"#mm_marker_color_100","styleHash":"3043c3be","description":"345 หมู่ 7","com_exlyo_mapmarker_images_with_ext":"[{\"file_rel_path\":\"local_media\\/img3124768028116109069\",\"file_size\":717524,\"file_extension\":\".png\"}]","com_exlyo_mapmarker_piniconcode":-1,"com_exlyo_mapmarker_customfields":"[]"}},{"type":"Feature","geometry":{"type":"Point","coordinates":[102.7426027134061,17.81534876026688,0]},"properties":{"name":"หอพักชาย,หอพักหญิง ขวัญเนตร","styleUrl":"#mm_marker_color_109","styleHash":"-784d8eb9","com_exlyo_mapmarker_piniconcode":-1,"com_exlyo_mapmarker_customfields":"[]"}},{"type":"Feature","geometry":{"type":"Point","coordinates":[102.7432756125927,17.8157777629209,0]},"properties":{"name":"หอพักหญิง บ้านสวนคณาณัฎ","styleUrl":"#mm_marker_color_110","styleHash":"816525d","com_exlyo_mapmarker_piniconcode":-1,"com_exlyo_mapmarker_customfields":"[]"}},{"type":"Feature","geometry":{"type":"Point","coordinates":[102.7437899261713,17.81585979679298,0]},"properties":{"name":"หอพักหญิง The Unchan","styleUrl":"#mm_marker_color_111","styleHash":"-43880c22","com_exlyo_mapmarker_piniconcode":-1,"com_exlyo_mapmarker_customfields":"[]"}},{"type":"Feature","geometry":{"type":"Point","coordinates":[102.7426996082067,17.81780433962662,0]},"properties":{"name":"หอพักชาย พชรญากร","styleUrl":"#mm_marker_color_115","styleHash":"-7201861e","com_exlyo_mapmarker_images_with_ext":"[{\"file_rel_path\":\"local_media\\/img8700930943216937828\",\"file_size\":290931,\"file_extension\":\".png\"}]","com_exlyo_mapmarker_piniconcode":-1,"com_exlyo_mapmarker_customfields":"[]"}},{"type":"Feature","geometry":{"type":"Point","coordinates":[102.7425825968385,17.81960299094412,0]},"properties":{"name":"หอพักหญิง ชวนชม","styleUrl":"#mm_marker_color_116","styleHash":"42601b63","com_exlyo_mapmarker_piniconcode":-1,"com_exlyo_mapmarker_customfields":"[]"}},{"type":"Feature","geometry":{"type":"Point","coordinates":[102.7423690259457,17.81816311376077,0]},"properties":{"name":"หอพักหญิง วิภาพรรณ เพลส","styleUrl":"#mm_marker_color_117","styleHash":"-93e431c","com_exlyo_mapmarker_images_with_ext":"[{\"file_rel_path\":\"local_media\\/img6692713627153718852\",\"file_size\":275890,\"file_extension\":\".png\"}]","com_exlyo_mapmarker_piniconcode":-1,"com_exlyo_mapmarker_customfields":"[]"}},{"type":"Feature","geometry":{"type":"Point","coordinates":[102.741965688765,17.81846443240453,0]},"properties":{"name":"หอพักหญิง โชคดี","styleUrl":"#mm_marker_color_118","styleHash":"-54dca19b","com_exlyo_mapmarker_images_with_ext":"[{\"file_rel_path\":\"local_media\\/img5909069264860776234\",\"file_size\":231462,\"file_extension\":\".png\"}]","com_exlyo_mapmarker_piniconcode":-1,"com_exlyo_mapmarker_customfields":"[]"}},{"type":"Feature","geometry":{"type":"Point","coordinates":[102.74214271456,17.8191605914335,0]},"properties":{"name":"หอพักหญิง มิลลี่เวย์ เพลส","styleUrl":"#mm_marker_color_119","styleHash":"5f84ffe6","com_exlyo_mapmarker_images_with_ext":"[{\"file_rel_path\":\"local_media\\/img2867338474649596660\",\"file_size\":557656,\"file_extension\":\".png\"}]","com_exlyo_mapmarker_piniconcode":-1,"com_exlyo_mapmarker_customfields":"[]"}},{"type":"Feature","geometry":{"type":"Point","coordinates":[102.7420310676098,17.81979546311571,0]},"properties":{"name":"หอพักหญิง วัลภา","styleUrl":"#mm_marker_color_120","styleHash":"-20171f04","com_exlyo_mapmarker_piniconcode":-1,"com_exlyo_mapmarker_customfields":"[]"}},{"type":"Feature","geometry":{"type":"Point","coordinates":[102.7421470731497,17.81935625599894,0]},"properties":{"name":"หอพักหญิง บ้านวัชราภรณ์","styleUrl":"#mm_marker_color_121","styleHash":"-6bb57d83","com_exlyo_mapmarker_piniconcode":-1,"com_exlyo_mapmarker_customfields":"[]"}},{"type":"Feature","geometry":{"type":"Point","coordinates":[102.7427794039249,17.81937381153672,0]},"properties":{"name":"หอพักหญิง เพชรประดับ","styleUrl":"#mm_marker_color_122","styleHash":"48ac23fe","com_exlyo_mapmarker_piniconcode":-1,"com_exlyo_mapmarker_customfields":"[]"}},{"type":"Feature","geometry":{"type":"Point","coordinates":[102.7425343170762,17.82027073762097,0]},"properties":{"name":"หอพักหญิง มั่งมี","styleUrl":"#mm_marker_color_123","styleHash":"-2f23a81","com_exlyo_mapmarker_piniconcode":-1,"com_exlyo_mapmarker_customfields":"[\n {\n  \"base_params\": {\n   \"id\": \"1a414561-e315-42f1-8fec-99de933c2026\",\n   \"field_type\": \"FreeText\",\n   \"is_enabled\": true,\n   \"name\": \"ที่อยู่\"\n  },\n  \"value\": {\n   \"text_value\": \"144 หมู่ 7\"\n  }\n }\n]"}},{"type":"Feature","geometry":{"type":"Point","coordinates":[102.7426097542048,17.82066014896412,0]},"properties":{"name":"หอพักหญิง เคนเนดี้","styleUrl":"#mm_marker_color_124","styleHash":"-4e909900","com_exlyo_mapmarker_piniconcode":-1,"com_exlyo_mapmarker_customfields":"[]"}},{"type":"Feature","geometry":{"type":"Point","coordinates":[102.7417692169547,17.81941849835239,0]},"properties":{"name":"หอพักชาย ลุงชัย (พวงทอง2)","styleUrl":"#mm_marker_color_125","styleHash":"65d10881","com_exlyo_mapmarker_piniconcode":-1,"com_exlyo_mapmarker_customfields":"[]"}},{"type":"Feature","geometry":{"type":"Point","coordinates":[102.7417470887303,17.8198398306349,0]},"properties":{"name":"หอพักหญิง พวงทอง","styleUrl":"#mm_marker_color_126","styleHash":"1a32aa02","com_exlyo_mapmarker_images_with_ext":"[{\"file_rel_path\":\"local_media\\/img4121401963486435645\",\"file_size\":896692,\"file_extension\":\".png\"}]","com_exlyo_mapmarker_piniconcode":-1,"com_exlyo_mapmarker_customfields":"[]"}},{"type":"Feature","geometry":{"type":"Point","coordinates":[102.7413786202669,17.81943062762899,0]},"properties":{"name":"หอพักหญิง พชรภัทร","styleUrl":"#mm_marker_color_127","styleHash":"-316bb47d","com_exlyo_mapmarker_piniconcode":-1,"com_exlyo_mapmarker_customfields":"[\n {\n  \"base_params\": {\n   \"id\": \"c3566310-d0ef-41c0-8987-57fe4fa85b98\",\n   \"field_type\": \"FreeText\",\n   \"is_enabled\": true,\n   \"name\": \"ที่อยู่\"\n  },\n  \"value\": {\n   \"text_value\": \"301 หมู่ 7\"\n  }\n }\n]"}},{"type":"Feature","geometry":{"type":"Point","coordinates":[102.7396958693862,17.82178911786069,0]},"properties":{"name":"หอพักชาย บ้านธีรวัฒน์","styleUrl":"#mm_marker_color_130","styleHash":-48449065,"com_exlyo_mapmarker_piniconcode":-1,"com_exlyo_mapmarker_customfields":"[]"}},{"type":"Feature","geometry":{"type":"Point","coordinates":[102.7376325801015,17.82106392294196,0]},"properties":{"name":"หอพักหญิง นิคมภักดิ์","styleUrl":"#mm_marker_color_132","styleHash":"207eb29d","com_exlyo_mapmarker_piniconcode":-1,"com_exlyo_mapmarker_customfields":"[]"}},{"type":"Feature","geometry":{"type":"Point","coordinates":[102.7376801893115,17.82088198537347,0]},"properties":{"name":"หอพักชาย นิคมภักดิ์","styleUrl":"#mm_marker_color_133","styleHash":"-2b1fabe2","com_exlyo_mapmarker_piniconcode":-1,"com_exlyo_mapmarker_customfields":"[]"}},{"type":"Feature","geometry":{"type":"Point","coordinates":[102.737673483789,17.82254846272263,0]},"properties":{"name":"หอพักชาย ปิยากร","styleUrl":"#mm_marker_color_135","styleHash":"3da39720","com_exlyo_mapmarker_piniconcode":-1,"com_exlyo_mapmarker_customfields":"[\n {\n  \"base_params\": {\n   \"id\": \"1982768d-eb3f-40e9-bde4-13625c294d7c\",\n   \"field_type\": \"FreeText\",\n   \"is_enabled\": true,\n   \"name\": \"ที่อยู่\"\n  },\n  \"value\": {\n   \"text_value\": \"347 หมู่ 7\"\n  }\n }\n]"}},{"type":"Feature","geometry":{"type":"Point","coordinates":[102.7425832673907,17.81629613975056,0]},"properties":{"name":"หอพักหญิง Casadio","styleUrl":"#mm_marker_color_140","styleHash":"-707201c6","com_exlyo_mapmarker_piniconcode":-1,"com_exlyo_mapmarker_customfields":"[]"}},{"type":"Feature","geometry":{"type":"Point","coordinates":[102.738870754838,17.82043352443348,0]},"properties":{"name":"หอพักหญิง สามพี่น้อง","styleUrl":"#mm_marker_color_141","styleHash":"43ef9fbb","description":"460 หมู่ที่ 7 ตำบล หนองกอมเกาะ อำเภอเมืองหนองคาย หนองคาย 43000 ประเทศไทย","com_exlyo_mapmarker_images_with_ext":"[{\"file_rel_path\":\"local_media\\/img5804040132880715707\",\"file_size\":439997,\"file_extension\":\".png\"}]","com_exlyo_mapmarker_piniconcode":-1,"com_exlyo_mapmarker_customfields":"[]"}},{"type":"Feature","geometry":{"type":"Point","coordinates":[102.7435149997473,17.81302689317004,0]},"properties":{"name":"หอพักหญิง ปรายตวัน","styleUrl":"#mm_marker_color_143","styleHash":"-534d1d43","com_exlyo_mapmarker_piniconcode":-1,"com_exlyo_mapmarker_customfields":"[]"}},{"type":"Feature","geometry":{"type":"Point","coordinates":[102.7407466247678,17.81516777446262,0]},"properties":{"name":"หอพักหญิง ใบเงิน","styleUrl":"#mm_marker_color_148","styleHash":"329b0a42","description":"155 หมู่ 7","com_exlyo_mapmarker_images_with_ext":"[{\"file_rel_path\":\"local_media\\/img1860832767013608306\",\"file_size\":760705,\"file_extension\":\".png\"}]","com_exlyo_mapmarker_piniconcode":-1,"com_exlyo_mapmarker_customfields":"[]"}},{"type":"Feature","geometry":{"type":"Point","coordinates":[102.7405920624733,17.81516234807764,0]},"properties":{"name":"หอพัก ขวัญทอง","styleUrl":"#mm_marker_color_149","styleHash":"-1903543d","description":"333 หมู่ 7","com_exlyo_mapmarker_images_with_ext":"[{\"file_rel_path\":\"local_media\\/img4008927785872421508\",\"file_size\":745971,\"file_extension\":\".png\"}]","com_exlyo_mapmarker_piniconcode":-1,"com_exlyo_mapmarker_customfields":"[]"}},{"type":"Feature","geometry":{"type":"Point","coordinates":[102.7392157539725,17.81619367745485,0]},"properties":{"name":"หอพักหญิง บ้านต้นโมกช์","styleUrl":"#mm_marker_color_150","styleHash":"67608cd9","description":"420 หมู่ 7","com_exlyo_mapmarker_images_with_ext":"[{\"file_rel_path\":\"local_media\\/img3094428200697782644\",\"file_size\":628840,\"file_extension\":\".png\"}]","com_exlyo_mapmarker_piniconcode":-1,"com_exlyo_mapmarker_customfields":"[]"}},{"type":"Feature","geometry":{"type":"Point","coordinates":[102.7384362369776,17.81661884771764,0]},"properties":{"name":"หอพักหญิง พระจันทร์","styleUrl":"#mm_marker_color_151","styleHash":"1bc22e5a","description":"390 หมู่ 7","com_exlyo_mapmarker_piniconcode":-1,"com_exlyo_mapmarker_customfields":"[]"}},{"type":"Feature","geometry":{"type":"Point","coordinates":[102.7383068203926,17.81664438343688,0]},"properties":{"name":"หอพักชาย พระอาทิตย์","styleUrl":"#mm_marker_color_152","styleHash":"-2fdc3025","com_exlyo_mapmarker_piniconcode":-1,"com_exlyo_mapmarker_customfields":"[]"}},{"type":"Feature","geometry":{"type":"Point","coordinates":[102.7378391101956,17.81670918030804,0]},"properties":{"name":"หอพักชาย-หญิง บ้านพีรสิริ","styleUrl":"#mm_marker_color_153","styleHash":"-7b7a8ea4","description":"419/1-4","com_exlyo_mapmarker_images_with_ext":"[{\"file_rel_path\":\"local_media\\/img6759180359201649869\",\"file_size\":913947,\"file_extension\":\".png\"}]","com_exlyo_mapmarker_piniconcode":-1,"com_exlyo_mapmarker_customfields":"[]"}},{"type":"Feature","geometry":{"type":"Point","coordinates":[102.7373888343573,17.81733256969283,0]},"properties":{"name":"หอพักชาย นนทษิต","styleUrl":"#mm_marker_color_154","styleHash":"38e712dd","description":"358/3 หมู่ 7","com_exlyo_mapmarker_images_with_ext":"[{\"file_rel_path\":\"local_media\\/img1436041637955133666\",\"file_size\":729057,\"file_extension\":\".png\"}]","com_exlyo_mapmarker_piniconcode":-1,"com_exlyo_mapmarker_customfields":"[]"}},{"type":"Feature","geometry":{"type":"Point","coordinates":[102.7372466772795,17.81741779480033,0]},"properties":{"name":"หอพักหญิง มณียา","styleUrl":"#mm_marker_color_155","styleHash":"-12b74ba2","description":"358/2 หมู่ 7","com_exlyo_mapmarker_images_with_ext":"[{\"file_rel_path\":\"local_media\\/img8079248270068937668\",\"file_size\":751817,\"file_extension\":\".png\"}]","com_exlyo_mapmarker_piniconcode":-1,"com_exlyo_mapmarker_customfields":"[]"}},{"type":"Feature","geometry":{"type":"Point","coordinates":[102.7382216602564,17.81950691437607,0]},"properties":{"name":"ศุภชัย อพาร์ทเมนท์","styleUrl":"#mm_marker_color_157","styleHash":"560bf760","description":"493 หมู่ 7","com_exlyo_mapmarker_images_with_ext":"[{\"file_rel_path\":\"local_media\\/img6639858996708460881\",\"file_size\":649863,\"file_extension\":\".png\"}]","com_exlyo_mapmarker_piniconcode":-1,"com_exlyo_mapmarker_customfields":"[]"}},{"type":"Feature","geometry":{"type":"Point","coordinates":[102.7379360049963,17.8185384852136,0]},"properties":{"name":"หอพักหญิง มะณีวัล","styleUrl":"#mm_marker_color_162","styleHash":"-5809a186","com_exlyo_mapmarker_images_with_ext":"[{\"file_rel_path\":\"local_media\\/img4730852041129824822\",\"file_size\":341086,\"file_extension\":\".png\"}]","com_exlyo_mapmarker_piniconcode":-1,"com_exlyo_mapmarker_customfields":"[]"}},{"type":"Feature","geometry":{"type":"Point","coordinates":[102.7384969219565,17.81932848632655,0]},"properties":{"name":"หอพัก แว่นแก้ว","styleUrl":"#mm_marker_color_163","styleHash":"5c57fffb","com_exlyo_mapmarker_images_with_ext":"[{\"file_rel_path\":\"local_media\\/img6686933910897356204\",\"file_size\":517686,\"file_extension\":\".png\"}]","com_exlyo_mapmarker_piniconcode":-1,"com_exlyo_mapmarker_customfields":"[]"}},{"type":"Feature","geometry":{"type":"Point","coordinates":[102.7397377789021,17.81938977111502,0]},"properties":{"name":"หอพักหญิง พรทิพย์","styleUrl":"#mm_marker_color_164","styleHash":"10b9a17c","description":"503 หมู่ 7","com_exlyo_mapmarker_images_with_ext":"[{\"file_rel_path\":\"local_media\\/img1690109859233764190\",\"file_size\":455910,\"file_extension\":\".png\"}]","com_exlyo_mapmarker_piniconcode":-1,"com_exlyo_mapmarker_customfields":"[]"}},{"type":"Feature","geometry":{"type":"Point","coordinates":[102.7398534491658,17.81953691835968,0]},"properties":{"name":"หอพักชาย พรทิพย์","styleUrl":"#mm_marker_color_165","styleHash":"-3ae4bd03","description":"504 หมู่ 7","com_exlyo_mapmarker_images_with_ext":"[{\"file_rel_path\":\"local_media\\/img2174677643193159386\",\"file_size\":655309,\"file_extension\":\".png\"}]","com_exlyo_mapmarker_piniconcode":-1,"com_exlyo_mapmarker_customfields":"[]"}},{"type":"Feature","geometry":{"type":"Point","coordinates":[102.7397672832012,17.81975684102166,0]},"properties":{"name":"หอพักหญิง พรทิพย์","styleUrl":"#mm_marker_color_166","styleHash":"797ce47e","description":"151 หมู่ 7","com_exlyo_mapmarker_images_with_ext":"[{\"file_rel_path\":\"local_media\\/img6157008597831637418\",\"file_size\":620325,\"file_extension\":\".png\"}]","com_exlyo_mapmarker_piniconcode":-1,"com_exlyo_mapmarker_customfields":"[]"}},{"type":"Feature","geometry":{"type":"Point","coordinates":[102.7388013526797,17.82089156103959,0]},"properties":{"name":"หอพักหญิง นิคมภักดิ์ 2","styleUrl":"#mm_marker_color_167","styleHash":"2dde85ff","com_exlyo_mapmarker_images_with_ext":"[{\"file_rel_path\":\"local_media\\/img4210662354629376840\",\"file_size\":401168,\"file_extension\":\".png\"}]","com_exlyo_mapmarker_piniconcode":-1,"com_exlyo_mapmarker_customfields":"[]"}},{"type":"Feature","geometry":{"type":"Point","coordinates":[102.739750854671,17.82478689934588,0]},"properties":{"name":"หอพักหญิง พิชญ์พลอย","styleUrl":"#mm_marker_color_174","styleHash":"-1773cfe5","com_exlyo_mapmarker_images_with_ext":"[{\"file_rel_path\":\"local_media\\/img4076452308780127966\",\"file_size\":604121,\"file_extension\":\".png\"}]","com_exlyo_mapmarker_piniconcode":-1,"com_exlyo_mapmarker_customfields":"[]"}},{"type":"Feature","geometry":{"type":"Point","coordinates":[102.7400036528707,17.82511278375316,0]},"properties":{"name":"หอพัก ธิมาภรณ์","styleUrl":"#mm_marker_color_175","styleHash":"-63122e64","com_exlyo_mapmarker_images_with_ext":"[{\"file_rel_path\":\"local_media\\/img416787908021873963\",\"file_size\":796599,\"file_extension\":\".png\"}]","com_exlyo_mapmarker_piniconcode":-1,"com_exlyo_mapmarker_customfields":"[]"}},{"type":"Feature","geometry":{"type":"Point","coordinates":[102.7414098009467,17.82384403356112,0]},"properties":{"name":"หอพักหญิง ชายสาม","styleUrl":"#mm_marker_color_178","styleHash":"-45ed49e1","description":"116 หมู่ 11","com_exlyo_mapmarker_piniconcode":-1,"com_exlyo_mapmarker_customfields":"[]"}},{"type":"Feature","geometry":{"type":"Point","coordinates":[102.7402108535171,17.81938881354038,0]},"properties":{"name":"หอพักหญิง 209 โฮมม์","styleUrl":"#mm_marker_color_182","styleHash":"579b7bb8","com_exlyo_mapmarker_images_with_ext":"[{\"file_rel_path\":\"local_media\\/img4740518046668644322\",\"file_size\":581771,\"file_extension\":\".png\"}]","com_exlyo_mapmarker_piniconcode":-1,"com_exlyo_mapmarker_customfields":"[]"}},{"type":"Feature","geometry":{"type":"Point","coordinates":[102.7405474707484,17.81704401696646,0]},"properties":{"name":"หอพักหญิง เกิดชัยยะ อพาร์ทเม้นท์","styleUrl":"#mm_marker_color_184","styleHash":"-3fa14146","description":"235 หมู่ 7","com_exlyo_mapmarker_images_with_ext":"[{\"file_rel_path\":\"local_media\\/img2919001235233503696\",\"file_size\":711612,\"file_extension\":\".png\"}]","com_exlyo_mapmarker_piniconcode":-1,"com_exlyo_mapmarker_customfields":"[]"}},{"type":"Feature","geometry":{"type":"Point","coordinates":[102.7409739419818,17.81600407417292,0]},"properties":{"name":"หอพักหญิง มิ่งวัฒนชาติ","styleUrl":"#mm_marker_color_185","styleHash":"74c0603b","com_exlyo_mapmarker_images_with_ext":"[{\"file_rel_path\":\"local_media\\/img3755715272833857056\",\"file_size\":871027,\"file_extension\":\".png\"}]","com_exlyo_mapmarker_piniconcode":-1,"com_exlyo_mapmarker_customfields":"[]"}},{"type":"Feature","geometry":{"type":"Point","coordinates":[102.7381535992026,17.81782987517603,0]},"properties":{"name":"บ้านพัก เทวารันย์","styleUrl":"#mm_marker_color_160","styleHash":"3f331b78","com_exlyo_mapmarker_images_with_ext":"[{\"file_rel_path\":\"local_media\\/img4863562979404965388\",\"file_size\":520669,\"file_extension\":\".png\"}]","com_exlyo_mapmarker_piniconcode":-1,"com_exlyo_mapmarker_customfields":"[]"}},{"type":"Feature","geometry":{"type":"Point","coordinates":[102.7379316464067,17.81793233653135,0]},"properties":{"name":"บ้านพัก บ้านสวนมังกรทอง","styleUrl":"#mm_marker_color_159","styleHash":"-171fa016","com_exlyo_mapmarker_images_with_ext":"[{\"file_rel_path\":\"local_media\\/img5998308504528897998\",\"file_size\":742121,\"file_extension\":\".png\"}]","com_exlyo_mapmarker_piniconcode":-1,"com_exlyo_mapmarker_customfields":"[]"}}]}
